{
  "type": "FeatureCollection",
  "features": [
    {
      "id": 1,
      "type": "Feature",
      "properties": {
        "name": "Paul's Coffee Roasters",
        "description": "Cozy coffee shop in Larnaca downtown. There are 5-7 wellknown coffee origins, V60, Cold Brew and classic drinks. A small main hall and a large garden in the backyard. Few power outlets for digital nomads",
        "placeId": "ChIJGyOA68eD4BQRZtKA5kM_O0c"
      },
      "geometry": {
        "type": "Point",
        "coordinates": [
          33.634976,
          34.9143997
        ]
      }
    },
    {
      "id": 2,
      "type": "Feature",
      "properties": {
        "name": "Uluwatu Specialty Coffee",
        "description": "Large selection of coffee origins and comfortable sofas in the old town of Limassol. Few outlets only",
        "placeId": "ChIJbSttYBsz5xQR1h0m6ubX9g0"
      },
      "geometry": {
        "type": "Point",
        "coordinates": [
          33.04662,
          34.675204
        ]
      }
    },
    {
      "id": 3,
      "type": "Feature",
      "properties": {
        "name": "South Coast Specialty Coffee",
        "description": "Large coffee shop in the Mackenzie beach area. Several classic coffee origins, tables with sockets and a separate playground for children",
        "placeId": "ChIJf2r8H92C4BQRClDxls7Viu4"
      },
      "geometry": {
        "type": "Point",
        "coordinates": [
          33.6371021,
          34.889787
        ]
      }
    },
    {
      "id": 4,
      "type": "Feature",
      "properties": {
        "name": "Menta Speciality CoffeeShop ",
        "description": "Very small coffee shop with a few tables outside. Greek barista and the perfect V60 and Cold Brew",
        "placeId": "ChIJI3HxklcX3hQRHDVP87cbnIo"
      },
      "geometry": {
        "type": "Point",
        "coordinates": [
          33.35864530000001,
          35.1649223
        ]
      }
    },
    {
      "id": 5,
      "type": "Feature",
      "properties": {
        "name": "Kollaborative Coffee Roasters",
        "description": "Middle-size coffee shop and bar in Nicosia old town. Selection of coffee origins, few tables inside and outside",
        "placeId": "ChIJTf61IgAX3hQRCwEn_V1idxA"
      },
      "geometry": {
        "type": "Point",
        "coordinates": [
          33.3569759,
          35.1671026
        ]
      }
    },
    {
      "id": 6,
      "type": "Feature",
      "properties": {
        "name": "Nomad Bread & Coffee",
        "description": "Small takeaway coffee shop in Limassol center with lots of coffee origins. No power sockets at all",
        "placeId": "ChIJaWe7ozQz5xQRUKPzaPpiOCk"
      },
      "geometry": {
        "type": "Point",
        "coordinates": [
          33.04813059999999,
          34.6830013
        ]
      }
    }
  ]
}
